LOCALITY,STATE,LAT,LON
Sydney,NSW,-33.8688,151.2093
Newcastle,NSW,-32.9283,151.7817
Canberra,ACT,-35.2809,149.1300
Melbourne,VIC,-37.8136,144.9631
Geelong,VIC,-38.1499,144.3617
Brisbane,QLD,-27.4698,153.0251
Townsville,QLD,-19.2589,146.8169
Cairns,QLD,-16.9186,145.7781
Adelaide,SA,-34.9285,138.6007
Perth,WA,-31.9523,115.8613
Hobart,TAS,-42.8821,147.3272
Launceston,TAS,-41.4332,147.1441
Darwin,NT,-12.4634,130.8456
Alice Springs,NT,-23.6980,133.8807
